{
  "generated": "2026-03-19T18:06:40.671426",
  "since": "2025-11-19",
  "count": 369,
  "locations": [
    {
      "name": "Big Red Liquors #231",
      "city": "Westfield",
      "state": "IN",
      "lat": 40.0440757,
      "lng": -86.1408204,
      "recent_items": [
        "Socks And Sandals",
        "Tapestry Of Obscenity",
        "King Of The Castle,"
      ]
    },
    {
      "name": "Mega Liquor & Smoke Plainfield",
      "city": "Plainfield",
      "state": "IN",
      "lat": 39.6754805,
      "lng": -86.3691812,
      "recent_items": [
        "Tapestry Of Obscenity",
        "Socks And Sandals",
        "Pull My Finger"
      ]
    },
    {
      "name": "Muncie Liquors #32",
      "city": "Muncie",
      "state": "IN",
      "lat": 40.2007885,
      "lng": -85.3923851,
      "recent_items": [
        "Kiss The Cook",
        "The Dude Abides",
        "Pull My Finger"
      ]
    },
    {
      "name": "Fat Dan's Deli - Indy College",
      "city": "Indianapolis",
      "state": "IN",
      "lat": 39.85137539999999,
      "lng": -86.1461105,
      "recent_items": [
        "Kiss The Cook",
        "Tapestry Of Obscenity",
        "Keg Deposit"
      ]
    },
    {
      "name": "Towne Spirits & Fine Wines (Westfield)",
      "city": "Westfield",
      "state": "IN",
      "lat": 40.0410673,
      "lng": -86.1072965,
      "recent_items": [
        "Pull My Finger",
        "Socks And Sandals",
        "Tapestry Of Obscenity"
      ]
    },
    {
      "name": "West Clay Fine Wine And Spirits",
      "city": "Carmel",
      "state": "IN",
      "lat": 39.9763739,
      "lng": -86.2048214,
      "recent_items": [
        "You're Grounded Mister",
        "Socks And Sandals",
        "Tapestry Of Obscenity"
      ]
    },
    {
      "name": "Grains & Grill",
      "city": "Fairmount",
      "state": "IN",
      "lat": 40.4151045,
      "lng": -85.65438979999999,
      "recent_items": [
        "Socks And Sandals"
      ]
    },
    {
      "name": "Bad Dad Pint & Slice Richmond",
      "city": "Richmond",
      "state": "IN",
      "lat": 39.8343429,
      "lng": -84.8913116,
      "recent_items": [
        "Pontoon Patrol",
        "You're Grounded Mister",
        "Tapestry Of Obscenity"
      ]
    },
    {
      "name": "Fords Garage - Noblesville",
      "city": "Noblesville",
      "state": "IN",
      "lat": 39.9932335,
      "lng": -85.9304147,
      "recent_items": [
        "The Dude Abides",
        "Keg Deposit",
        "Keg Credit"
      ]
    },
    {
      "name": "Binkleys Kitchen and Bar",
      "city": "Indianapolis",
      "state": "IN",
      "lat": 39.8624059,
      "lng": -86.14627949999999,
      "recent_items": [
        "The Dude Abides",
        "Keg Deposit",
        "Keg Credit"
      ]
    },
    {
      "name": "Savage's Ale House",
      "city": "Muncie",
      "state": "IN",
      "lat": 40.1944714,
      "lng": -85.38796579999999,
      "recent_items": [
        "Because I Said So 16/4/6",
        "Keg Credit"
      ]
    },
    {
      "name": "Total Wine and More (Noblesville)",
      "city": "Noblesville",
      "state": "IN",
      "lat": 39.9933001,
      "lng": -85.9311733,
      "recent_items": [
        "Kiss The Cook",
        "Pull My Finger",
        "Socks And Sandals"
      ]
    },
    {
      "name": "Total Wine Beer Spirits and More (Greenwood)",
      "city": "Indianapolis",
      "state": "IN",
      "lat": 39.6360757,
      "lng": -86.1243464,
      "recent_items": [
        "Kiss The Cook",
        "The Dude Abides",
        "You're Grounded Mister"
      ]
    },
    {
      "name": "Total Wine Spirits and More Avon 2705",
      "city": "Avon",
      "state": "IN",
      "lat": 39.76619280000001,
      "lng": -86.3391812,
      "recent_items": [
        "Socks And Sandals",
        "You're Grounded Mister",
        "The Dude Abides"
      ]
    },
    {
      "name": "Roots Burger Bar- Carmel",
      "city": "Carmel",
      "state": "IN",
      "lat": 39.9704953,
      "lng": -86.09113119999999,
      "recent_items": [
        "The Dude Abides",
        "Because I Said So,",
        "Keg Deposit"
      ]
    },
    {
      "name": "Total Wine and Spirits (Carmel)",
      "city": "Carmel",
      "state": "IN",
      "lat": 40.0020686,
      "lng": -86.11720749999999,
      "recent_items": [
        "Kiss The Cook",
        "Pontoon Patrol",
        "Socks And Sandals"
      ]
    },
    {
      "name": "Purgatory Golf Club",
      "city": "Noblesville",
      "state": "IN",
      "lat": 40.1067338,
      "lng": -85.9521694,
      "recent_items": [
        "The Dude Abides",
        "Keg Deposit",
        "Purgatory IPA"
      ]
    },
    {
      "name": "Bad Dad Brewery Taproom",
      "city": "Fairmount",
      "state": "IN",
      "lat": 40.4151045,
      "lng": -85.65438979999999,
      "recent_items": [
        "Cherry Grounded",
        "Pontoon Patrol",
        "The Dude Abides"
      ]
    },
    {
      "name": "Holly's Liquor",
      "city": "Greentown",
      "state": "IN",
      "lat": 40.4776744,
      "lng": -85.9674047,
      "recent_items": [
        "Tapestry Of Obscenity",
        "The Dude Abides",
        "Because I Said So 16/4/6"
      ]
    },
    {
      "name": "Bedrock Liquors III",
      "city": "Lafayette",
      "state": "IN",
      "lat": 40.5029996,
      "lng": -86.8679642,
      "recent_items": [
        "You're Grounded Mister",
        "Tapestry Of Obscenity",
        "Stud Finder"
      ]
    },
    {
      "name": "Saxony Pizzeria",
      "city": "Fishers",
      "state": "IN",
      "lat": 39.9820088,
      "lng": -85.92198979999999,
      "recent_items": [
        "Back in My Day",
        "Socks And Sandals",
        "Keg Deposit"
      ]
    },
    {
      "name": "The Windmill Tavern",
      "city": "Windfall",
      "state": "IN",
      "lat": 40.36322130000001,
      "lng": -85.9566287,
      "recent_items": [
        "Socks And Sandals",
        "Keg Deposit",
        "Keg Credit"
      ]
    },
    {
      "name": "Ripple & Company",
      "city": "Lafayette",
      "state": "IN",
      "lat": 40.4188789,
      "lng": -86.88546629999999,
      "recent_items": [
        "Tapestry Of Obscenity",
        "Socks And Sandals",
        "Keg Deposit"
      ]
    },
    {
      "name": "Foxgardin Kitchen & Ale",
      "city": "Fortville",
      "state": "IN",
      "lat": 39.9328977,
      "lng": -85.8484587,
      "recent_items": [
        "Pull My Finger",
        "Keg Deposit",
        "Keg Credit"
      ]
    },
    {
      "name": "The Alexander",
      "city": "Indianapolis",
      "state": "IN",
      "lat": 39.7617566,
      "lng": -86.1542625,
      "recent_items": [
        "Because I Said So",
        "Keg Deposit",
        "Keg Credit"
      ]
    },
    {
      "name": "Jockamos Pizza- Irvington",
      "city": "Indianapolis",
      "state": "IN",
      "lat": 39.771037,
      "lng": -86.0706435,
      "recent_items": [
        "Pull My Finger",
        "Keg Deposit",
        "Keg Credit"
      ]
    },
    {
      "name": "Noble Wine And Spirits #46",
      "city": "New Castle",
      "state": "IN",
      "lat": 39.9158211,
      "lng": -85.38469979999999,
      "recent_items": [
        "The Dude Abides",
        "Tapestry Of Obscenity",
        "Socks And Sandals"
      ]
    },
    {
      "name": "Papa Joe's Liquors #154",
      "city": "Richmond",
      "state": "IN",
      "lat": 39.8319447,
      "lng": -84.8350842,
      "recent_items": [
        "Tapestry Of Obscenity",
        "The Dude Abides",
        "Socks And Sandals"
      ]
    },
    {
      "name": "Papa Joe's Liquors #156",
      "city": "Richmond",
      "state": "IN",
      "lat": 39.869054,
      "lng": -84.8889791,
      "recent_items": [
        "The Dude Abides",
        "Pull My Finger"
      ]
    },
    {
      "name": "Bonus Pints",
      "city": "Logansport",
      "state": "IN",
      "lat": 40.7544153,
      "lng": -86.36468959999999,
      "recent_items": [
        "The Dude Abides",
        "Tapestry Of Obscenity",
        "Socks And Sandals"
      ]
    },
    {
      "name": "Salty Cowboy",
      "city": "Zionsville",
      "state": "IN",
      "lat": 39.9506691,
      "lng": -86.2609123,
      "recent_items": [
        "I'll Turn This Car Around",
        "Keg Deposit",
        "Pull My Finger"
      ]
    },
    {
      "name": "Five Star Distributing",
      "city": "Columbia City",
      "state": "IN",
      "lat": 41.1386005,
      "lng": -85.41362790000001,
      "recent_items": [
        "The Dude Abides",
        "Tapestry Of Obscenity",
        "Socks And Sandals"
      ]
    },
    {
      "name": "Noble Wine and Spirits #22",
      "city": "Anderson",
      "state": "IN",
      "lat": 40.0643773,
      "lng": -85.65333570000001,
      "recent_items": [
        "Pull My Finger",
        "You're Grounded Mister",
        "Socks And Sandals"
      ]
    },
    {
      "name": "Noble Wine and Spirits #60",
      "city": "Yorktown",
      "state": "IN",
      "lat": 40.1717839,
      "lng": -85.5010066,
      "recent_items": [
        "Tapestry Of Obscenity",
        "You're Grounded Mister"
      ]
    },
    {
      "name": "Valor 3 Barbers and Brews",
      "city": "Fishers",
      "state": "IN",
      "lat": 39.95716240000001,
      "lng": -86.01472969999999,
      "recent_items": [
        "Kiss The Cook",
        "Glassware BD Branded",
        "Keg Deposit"
      ]
    },
    {
      "name": "Tick Tock Lounge Bar",
      "city": "Indianapolis",
      "state": "IN",
      "lat": 39.7814944,
      "lng": -86.1178731,
      "recent_items": [
        "Because I Said So",
        "Keg Deposit",
        "Keg Credit"
      ]
    },
    {
      "name": "Denvers Garage",
      "city": "Fortville",
      "state": "IN",
      "lat": 39.9317128,
      "lng": -85.8467276,
      "recent_items": [
        "The Dude Abides",
        "Tapestry Of Obscenity",
        "You're Grounded Mister"
      ]
    },
    {
      "name": "Tappers Arcade Bar",
      "city": "Indianapolis",
      "state": "IN",
      "lat": 39.7595413,
      "lng": -86.1480686,
      "recent_items": [
        "Tapestry Of Obscenity",
        "Keg Deposit",
        "Keg Credit"
      ]
    },
    {
      "name": "Pies & Pints - Carmel",
      "city": "Carmel",
      "state": "IN",
      "lat": 39.9988559,
      "lng": -86.1304033,
      "recent_items": [
        "You're Grounded Mister",
        "Keg Deposit",
        "Keg Credit"
      ]
    },
    {
      "name": "Shallo's Antique Restaurant & Brewhaus",
      "city": "Indianapolis",
      "state": "IN",
      "lat": 39.6379591,
      "lng": -86.1237766,
      "recent_items": [
        "Socks And Sandals",
        "Keg Deposit",
        "Keg Credit"
      ]
    },
    {
      "name": "Greek's Pizzeria / The Groggy Goat",
      "city": "Martinsville",
      "state": "IN",
      "lat": 39.4279747,
      "lng": -86.4283981,
      "recent_items": [
        "Keg Credit",
        "The Dude Abides",
        "Keg Deposit"
      ]
    },
    {
      "name": "Wheelies",
      "city": "Tipton",
      "state": "IN",
      "lat": 40.2824765,
      "lng": -86.0390287,
      "recent_items": [
        "Pontoon Patrol",
        "Keg Deposit",
        "Keg Credit"
      ]
    },
    {
      "name": "Soupley's Liquor (Southway)",
      "city": "Kokomo",
      "state": "IN",
      "lat": 40.4449035,
      "lng": -86.1250439,
      "recent_items": [
        "Kiss The Cook",
        "You're Grounded Mister",
        "Pull My Finger"
      ]
    },
    {
      "name": "Soupley's Liquor (Dixon)",
      "city": "Kokomo",
      "state": "IN",
      "lat": 40.4894238,
      "lng": -86.1645073,
      "recent_items": [
        "Tapestry Of Obscenity"
      ]
    },
    {
      "name": "Soupley's Liquor (Reed)",
      "city": "Kokomo",
      "state": "IN",
      "lat": 40.4836878,
      "lng": -86.10679669999999,
      "recent_items": [
        "Tapestry Of Obscenity",
        "The Dude Abides"
      ]
    },
    {
      "name": "Boulevard Liquor Store #37",
      "city": "Kokomo",
      "state": "IN",
      "lat": 40.4628306,
      "lng": -86.1126314,
      "recent_items": [
        "Pull My Finger",
        "Tapestry Of Obscenity",
        "I'll Turn This Car Around"
      ]
    },
    {
      "name": "Arni's",
      "city": "Indianapolis",
      "state": "IN",
      "lat": 39.9255263,
      "lng": -86.08983070000001,
      "recent_items": [
        "I'll Turn This Car Around",
        "Keg Deposit",
        "Keg Credit"
      ]
    },
    {
      "name": "Red Lion Grog House",
      "city": "Indianapolis",
      "state": "IN",
      "lat": 39.7525463,
      "lng": -86.1407527,
      "recent_items": [
        "The Dude Abides",
        "Keg Deposit",
        "Keg Credit"
      ]
    },
    {
      "name": "Roots Burger Bar - Muncie",
      "city": "Muncie",
      "state": "IN",
      "lat": 40.1977963,
      "lng": -85.4059145,
      "recent_items": [
        "Cherry Grounded",
        "Keg Deposit",
        "You're Grounded Mister"
      ]
    },
    {
      "name": "Kuma's Corner",
      "city": "Indianapolis",
      "state": "IN",
      "lat": 39.7520771,
      "lng": -86.1387487,
      "recent_items": [
        "Because I Said So,",
        "Stud Finder",
        "Keg Deposit"
      ]
    },
    {
      "name": "Emagine Theaters",
      "city": "Noblesville",
      "state": "IN",
      "lat": 39.9898911,
      "lng": -85.9335272,
      "recent_items": [
        "Tapestry Of Obscenity",
        "Keg Deposit"
      ]
    },
    {
      "name": "Bru Burger- Keystone",
      "city": "Indianapolis",
      "state": "IN",
      "lat": 39.9148046,
      "lng": -86.10609749999999,
      "recent_items": [
        "Pull My Finger",
        "Keg Deposit",
        "I'll Turn This Car Around"
      ]
    },
    {
      "name": "Whole Foods Market #10378",
      "city": "Indianapolis",
      "state": "IN",
      "lat": 39.9153846,
      "lng": -86.13919109999999,
      "recent_items": [
        "Socks And Sandals",
        "The Dude Abides"
      ]
    },
    {
      "name": "Pearl Street Pizzeria And Pub",
      "city": "Indianapolis",
      "state": "IN",
      "lat": 39.7661842,
      "lng": -86.15685330000001,
      "recent_items": [
        "Tapestry Of Obscenity",
        "Keg Deposit",
        "Keg Credit"
      ]
    },
    {
      "name": "Indiana On Tap",
      "city": "Fairmount",
      "state": "IN",
      "lat": 40.4151045,
      "lng": -85.65438979999999,
      "recent_items": [
        "Socks And Sandals",
        "Tapestry Of Obscenity",
        "The Dude Abides"
      ]
    },
    {
      "name": "Total Wine Spirits Beer and More (NORA)",
      "city": "Indianapolis",
      "state": "IN",
      "lat": 39.91393,
      "lng": -86.135216,
      "recent_items": [
        "Pull My Finger",
        "Socks And Sandals",
        "You're Grounded Mister"
      ]
    },
    {
      "name": "Sauce On The Side (Carmel)",
      "city": "Carmel",
      "state": "IN",
      "lat": 39.9734179,
      "lng": -86.15484359999999,
      "recent_items": [
        "Back in My Day",
        "Pull My Finger",
        "Tapestry Of Obscenity"
      ]
    },
    {
      "name": "Zionsville Pizzeria",
      "city": "Zionsville",
      "state": "IN",
      "lat": 39.9494616,
      "lng": -86.2609794,
      "recent_items": [
        "The Dude Abides",
        "I'll Turn This Car Around"
      ]
    },
    {
      "name": "Chatham Tap Fishers",
      "city": "Fishers",
      "state": "IN",
      "lat": 39.95643829999999,
      "lng": -86.0230785,
      "recent_items": [
        "I'll Turn This Car Around",
        "Keg Deposit",
        "Keg Credit"
      ]
    },
    {
      "name": "Harvest Market #584",
      "city": "Carmel",
      "state": "IN",
      "lat": 39.9580594,
      "lng": -86.1160141,
      "recent_items": [
        "The Dude Abides",
        "Stud Finder",
        "Tapestry Of Obscenity"
      ]
    },
    {
      "name": "Parks Place Pub",
      "city": "Fishers",
      "state": "IN",
      "lat": 39.9569734,
      "lng": -86.0110837,
      "recent_items": [
        "Socks And Sandals",
        "Keg Deposit",
        "Keg Credit"
      ]
    },
    {
      "name": "Indiana Brewers Guild",
      "city": "Indianapolis",
      "state": "IN",
      "lat": 39.8398955,
      "lng": -86.1239573,
      "recent_items": [
        "Because I Said So,",
        "Cherry Grounded",
        "Pontoon Patrol"
      ]
    },
    {
      "name": "Nine Irish Brothers East",
      "city": "Lafayette",
      "state": "IN",
      "lat": 40.3987631,
      "lng": -86.8539077,
      "recent_items": [
        "Because I Said So,",
        "Keg Deposit",
        "Keg Credit"
      ]
    },
    {
      "name": "Fat Dan's Deli - Carmel",
      "city": "Carmel",
      "state": "IN",
      "lat": 39.9786839,
      "lng": -86.1423829,
      "recent_items": [
        "Tapestry Of Obscenity",
        "Keg Deposit",
        "Keg Credit"
      ]
    },
    {
      "name": "Jockamo Upper - Indy Otis",
      "city": "Indianapolis",
      "state": "IN",
      "lat": 39.8557925,
      "lng": -86.0061776,
      "recent_items": [
        "You're Grounded Mister",
        "Keg Deposit",
        "Keg Credit"
      ]
    },
    {
      "name": "317 Burger",
      "city": "Indianapolis",
      "state": "IN",
      "lat": 39.8704971,
      "lng": -86.142467,
      "recent_items": [
        "The Dude Abides",
        "Keg Deposit",
        "Keg Credit"
      ]
    },
    {
      "name": "Revolution BBQ",
      "city": "Lafayette",
      "state": "IN",
      "lat": 40.4189313,
      "lng": -86.8880654,
      "recent_items": [
        "I'll Turn This Car Around",
        "Stud Finder"
      ]
    },
    {
      "name": "Save On Liquor #28",
      "city": "Alexandria",
      "state": "IN",
      "lat": 40.265066,
      "lng": -85.666674,
      "recent_items": [
        "You're Grounded Mister"
      ]
    },
    {
      "name": "Friendly Package Liquors #48",
      "city": "Muncie",
      "state": "IN",
      "lat": 40.1814624,
      "lng": -85.4609931,
      "recent_items": [
        "Tapestry Of Obscenity",
        "The Dude Abides",
        "You're Grounded Mister"
      ]
    },
    {
      "name": "Ale Emporium Fishers",
      "city": "Fishers",
      "state": "IN",
      "lat": 39.9562649,
      "lng": -85.9164866,
      "recent_items": [
        "The Dude Abides",
        "Keg Deposit",
        "Keg Credit"
      ]
    },
    {
      "name": "Fat Dan's Deli - Indy Michigan",
      "city": "Indianapolis",
      "state": "IN",
      "lat": 39.7740737,
      "lng": -86.14972320000001,
      "recent_items": [
        "The Dude Abides",
        "Keg Deposit"
      ]
    },
    {
      "name": "Whole Foods Market #10597",
      "city": "Indianapolis",
      "state": "IN",
      "lat": 39.7685789,
      "lng": -86.15154609999999,
      "recent_items": [
        "Tapestry Of Obscenity"
      ]
    },
    {
      "name": "Red Dog Saloon",
      "city": "Muncie",
      "state": "IN",
      "lat": 40.1679211,
      "lng": -85.4039177,
      "recent_items": [
        "Socks And Sandals",
        "Glassware BD Branded",
        "Keg Deposit"
      ]
    },
    {
      "name": "The District Tap (82nd St)",
      "city": "Indianapolis",
      "state": "IN",
      "lat": 39.9105469,
      "lng": -86.10284480000001,
      "recent_items": [
        "Tapestry Of Obscenity",
        "Keg Deposit"
      ]
    },
    {
      "name": "Ink & Ale Brewhouse",
      "city": "New Castle",
      "state": "IN",
      "lat": 39.9303495,
      "lng": -85.36946999999999,
      "recent_items": [
        "Back in My Day",
        "Kiss The Cook",
        "The Dude Abides"
      ]
    },
    {
      "name": "Divot Golf Factory",
      "city": "Brownsburg",
      "state": "IN",
      "lat": 39.858002,
      "lng": -86.3911175,
      "recent_items": [
        "The Dude Abides",
        "Tapestry Of Obscenity",
        "Back in My Day"
      ]
    },
    {
      "name": "Shelby Street Tavern",
      "city": "Indianapolis",
      "state": "IN",
      "lat": 39.7256256,
      "lng": -86.1393772,
      "recent_items": [
        "Socks And Sandals",
        "I'll Turn This Car Around",
        "Keg Deposit"
      ]
    },
    {
      "name": "Bad Dad Sales Group",
      "city": "Fairmount",
      "state": "IN",
      "lat": 40.4151045,
      "lng": -85.65438979999999,
      "recent_items": [
        "I'll Turn This Car Around",
        "Because I Said So 16/4/6",
        "You're Grounded Mister"
      ]
    },
    {
      "name": "PASTArrific Italian Restaurant",
      "city": "Kokomo",
      "state": "IN",
      "lat": 40.4514367,
      "lng": -86.1369744,
      "recent_items": [
        "Socks And Sandals",
        "Keg Deposit",
        "Glassware BD Branded"
      ]
    },
    {
      "name": "Mega Liquor & Smoke #27",
      "city": "Peru",
      "state": "IN",
      "lat": 40.7492847,
      "lng": -86.07834059999999,
      "recent_items": [
        "The Dude Abides",
        "Tapestry Of Obscenity",
        "Pull My Finger"
      ]
    },
    {
      "name": "Jack's Liquor Store #51",
      "city": "Monticello",
      "state": "IN",
      "lat": 40.75694379999999,
      "lng": -86.7747298,
      "recent_items": [
        "The Dude Abides",
        "You're Grounded Mister",
        "Tapestry Of Obscenity"
      ]
    },
    {
      "name": "Towne Spirits & Fine Wines (Hague)",
      "city": "Noblesville",
      "state": "IN",
      "lat": 40.0901134,
      "lng": -86.0339386,
      "recent_items": [
        "Tapestry Of Obscenity",
        "Socks And Sandals",
        "Pull My Finger"
      ]
    },
    {
      "name": "Joe's Grille",
      "city": "Indianapolis",
      "state": "IN",
      "lat": 39.90441,
      "lng": -86.052767,
      "recent_items": [
        "Socks And Sandals",
        "Keg Deposit"
      ]
    },
    {
      "name": "Payless Liquor #17",
      "city": "Fishers",
      "state": "IN",
      "lat": 39.9560627,
      "lng": -86.0390575,
      "recent_items": [
        "Pull My Finger",
        "Tapestry Of Obscenity",
        "You're Grounded Mister"
      ]
    },
    {
      "name": "Pies & Pints - Noblesville IN",
      "city": "Noblesville",
      "state": "IN",
      "lat": 39.9910035,
      "lng": -85.9318919,
      "recent_items": [
        "Because I Said So",
        "Keg Deposit",
        "Keg Credit"
      ]
    },
    {
      "name": "Save On Liquor #14",
      "city": "Elwood",
      "state": "IN",
      "lat": 40.2772466,
      "lng": -85.8360531,
      "recent_items": [
        "Pull My Finger",
        "The Dude Abides"
      ]
    },
    {
      "name": "The Switch Track",
      "city": "Lebanon",
      "state": "IN",
      "lat": 40.0470788,
      "lng": -86.4796298,
      "recent_items": [
        "Keg Deposit",
        "You're Grounded Mister",
        "Tap Handle BD Branded"
      ]
    },
    {
      "name": "Fresh Thyme Farmers Market (#211AVN)",
      "city": "Indianapolis",
      "state": "IN",
      "lat": 39.7655174,
      "lng": -86.32285999999999,
      "recent_items": [
        "You're Grounded Mister",
        "Tapestry Of Obscenity"
      ]
    },
    {
      "name": "Gas City Brewing Co",
      "city": "Gas City",
      "state": "IN",
      "lat": 40.488166,
      "lng": -85.6111449,
      "recent_items": [
        "2-Row Brewers Malt"
      ]
    },
    {
      "name": "East End Grill",
      "city": "Lafayette",
      "state": "IN",
      "lat": 40.419379,
      "lng": -86.8853309,
      "recent_items": [
        "Tapestry Light:",
        "Keg Deposit",
        "Tapestry Of Obscenity"
      ]
    },
    {
      "name": "Payless Liquor #23",
      "city": "Zionsville",
      "state": "IN",
      "lat": 39.9490332,
      "lng": -86.3329408,
      "recent_items": [
        "Kiss The Cook",
        "The Dude Abides"
      ]
    },
    {
      "name": "Payless Liquor #13",
      "city": "Zionsville",
      "state": "IN",
      "lat": 39.9492743,
      "lng": -86.2753362,
      "recent_items": [
        "Tapestry Of Obscenity",
        "Pull My Finger",
        "The Dude Abides"
      ]
    },
    {
      "name": "Primo LLC",
      "city": "New Castle",
      "state": "IN",
      "lat": 39.9315358,
      "lng": -85.3693467,
      "recent_items": [
        "Tapestry Of Obscenity",
        "The Dude Abides",
        "Keg Deposit"
      ]
    },
    {
      "name": "Yats Trader Point",
      "city": "Indianapolis",
      "state": "IN",
      "lat": 39.9123317,
      "lng": -86.26207509999999,
      "recent_items": [
        "Back in My Day",
        "Keg Deposit",
        "Keg Credit"
      ]
    },
    {
      "name": "Union Jack Pub (Broad Ripple)",
      "city": "Indianapolis",
      "state": "IN",
      "lat": 39.8695165,
      "lng": -86.1421907,
      "recent_items": [
        "Socks And Sandals",
        "Keg Deposit",
        "Keg Credit"
      ]
    },
    {
      "name": "Stoney\u2019s Liquor Store",
      "city": "Indianapolis",
      "state": "IN",
      "lat": 39.7812979,
      "lng": -86.0822462,
      "recent_items": [
        "Tapestry Of Obscenity",
        "Pull My Finger",
        "The Dude Abides"
      ]
    },
    {
      "name": "Backroads BBQ",
      "city": "Lebanon",
      "state": "IN",
      "lat": 40.0471204,
      "lng": -86.4838626,
      "recent_items": [
        "Stud Finder",
        "Keg Deposit"
      ]
    },
    {
      "name": "The Mad Tap",
      "city": "Tipton",
      "state": "IN",
      "lat": 40.281177,
      "lng": -86.039675,
      "recent_items": [
        "You're Grounded Mister",
        "Keg Deposit"
      ]
    },
    {
      "name": "Niemann Foods, Inc",
      "city": "Carmel",
      "state": "IN",
      "lat": 39.9580594,
      "lng": -86.1160141,
      "recent_items": [
        "Tapestry Of Obscenity",
        "The Dude Abides",
        "You're Grounded Mister"
      ]
    },
    {
      "name": "Tillies Icon",
      "city": "Alexandria",
      "state": "IN",
      "lat": 40.2632041,
      "lng": -85.68485009999999,
      "recent_items": [
        "Stud Finder",
        "Keg Deposit",
        "Keg Credit"
      ]
    },
    {
      "name": "Keg-N-Bottle Package Liquors #1",
      "city": "Anderson",
      "state": "IN",
      "lat": 40.1097407,
      "lng": -85.65222729999999,
      "recent_items": [
        "Stud Finder",
        "Tapestry Of Obscenity",
        "Pull My Finger"
      ]
    },
    {
      "name": "The Tin Plate Fine Food & Spirits",
      "city": "Elwood",
      "state": "IN",
      "lat": 40.2675755,
      "lng": -85.83120600000001,
      "recent_items": [
        "Tapestry Of Obscenity"
      ]
    },
    {
      "name": "Save On Liquor #03",
      "city": "Muncie",
      "state": "IN",
      "lat": 40.2256298,
      "lng": -85.4060654,
      "recent_items": [
        "Tapestry Of Obscenity",
        "The Dude Abides"
      ]
    },
    {
      "name": "Fresh Thyme Farmers Market (#214MUN)",
      "city": "Muncie",
      "state": "IN",
      "lat": 40.2179107,
      "lng": -85.3913566,
      "recent_items": [
        "Tapestry Of Obscenity",
        "The Dude Abides",
        "Socks And Sandals"
      ]
    },
    {
      "name": "The Coterie",
      "city": "Kokomo",
      "state": "IN",
      "lat": 40.4863702,
      "lng": -86.1316851,
      "recent_items": [
        "Stud Finder",
        "Back in My Day",
        "Pull My Finger"
      ]
    },
    {
      "name": "Jockamos - Greenwood",
      "city": "Greenwood",
      "state": "IN",
      "lat": 39.6113221,
      "lng": -86.1095703,
      "recent_items": [
        "Stud Finder",
        "Keg Deposit",
        "Keg Credit"
      ]
    },
    {
      "name": "SAVE-ON LIQUOR 107 - S ADAMS",
      "city": "Marion",
      "state": "IN",
      "lat": 40.5231616,
      "lng": -85.65858539999999,
      "recent_items": [
        "Tapestry Of Obscenity"
      ]
    },
    {
      "name": "GIORDANOS - FT WAYNE",
      "city": "Fort Wayne",
      "state": "IN",
      "lat": 41.1777506,
      "lng": -85.0935428,
      "recent_items": [
        "Socks And Sandals"
      ]
    },
    {
      "name": "CRANE BAR",
      "city": "Fort Wayne",
      "state": "IN",
      "lat": 41.0711124,
      "lng": -85.1503061,
      "recent_items": [
        "Tapestry Of Obscenity"
      ]
    },
    {
      "name": "HACIENDA 15 - WARSAW",
      "city": "Warsaw",
      "state": "IN",
      "lat": 41.2288033,
      "lng": -85.7964262,
      "recent_items": [
        "Other",
        "The Dude Abides"
      ]
    },
    {
      "name": "S&V LIQUOR 4 - MAPLECREST",
      "city": "Fort Wayne",
      "state": "IN",
      "lat": 41.1332745,
      "lng": -85.0628334,
      "recent_items": [
        "You'Re Grounded Mister",
        "The Dude Abides",
        "Socks And Sandals"
      ]
    },
    {
      "name": "S&V LIQUOR 5 - ILLINOIS RD",
      "city": "Fort Wayne",
      "state": "IN",
      "lat": 41.0753693,
      "lng": -85.2718565,
      "recent_items": [
        "Pull My Finger",
        "You'Re Grounded Mister",
        "Tapestry Of Obscenity"
      ]
    },
    {
      "name": "NOBLE WINE & SPIRITS",
      "city": "Marion",
      "state": "IN",
      "lat": 40.5460782,
      "lng": -85.6722219,
      "recent_items": [
        "The Dude Abides",
        "Tapestry Of Obscenity",
        "Pull My Finger"
      ]
    },
    {
      "name": "BREVINS RESTAURANT - CHURUBUSCO",
      "city": "Churubusco",
      "state": "IN",
      "lat": 41.2293122,
      "lng": -85.3188121,
      "recent_items": [
        "Tapestry Of Obscenity",
        "Other",
        "Bad Dad"
      ]
    },
    {
      "name": "JOE AND FREDDYS BAR & GRILL",
      "city": "Michigan City",
      "state": "IN",
      "lat": 41.6920043,
      "lng": -86.9400835,
      "recent_items": [
        "Pull My Finger",
        "Socks And Sandals",
        "Tapestry Of Obscenity"
      ]
    },
    {
      "name": "SAVE-ON LIQUOR 125 - GAS CITY",
      "city": "Gas City",
      "state": "IN",
      "lat": 40.4876308,
      "lng": -85.61015960000002,
      "recent_items": [
        "Pull My Finger",
        "Tapestry Of Obscenity",
        "The Dude Abides"
      ]
    },
    {
      "name": "BELMONT BEVERAGE 36 - CLEV RD",
      "city": "Granger",
      "state": "IN",
      "lat": 41.7240935,
      "lng": -86.1748383,
      "recent_items": [
        "Pull My Finger",
        "You'Re Grounded Mister",
        "The Dude Abides"
      ]
    },
    {
      "name": "BUFFALO WINGS - JEFFERSON BLVD",
      "city": "Fort Wayne",
      "state": "IN",
      "lat": 41.0543381,
      "lng": -85.2252792,
      "recent_items": [
        "Tapestry Of Obscenity",
        "Other"
      ]
    },
    {
      "name": "TAVERN ON MAIN",
      "city": "Crown Point",
      "state": "IN",
      "lat": 41.416987,
      "lng": -87.36417,
      "recent_items": [
        "Stud Finder Amber Ale",
        "Pull My Finger",
        "Thermostat Police"
      ]
    },
    {
      "name": "SYLVAN CELLARS EVENT CENTER",
      "city": "Rome City",
      "state": "IN",
      "lat": 41.5062602,
      "lng": -85.37226299999999,
      "recent_items": [
        "You'Re Grounded Mister",
        "Pull My Finger",
        "Tapestry Of Obscenity"
      ]
    },
    {
      "name": "NAWA",
      "city": "Fort Wayne",
      "state": "IN",
      "lat": 41.0813656,
      "lng": -85.1413299,
      "recent_items": [
        "Socks And Sandals",
        "Other",
        "I'Ll Turn This Car Around"
      ]
    },
    {
      "name": "CAP N CORK 12 - COVINGTON",
      "city": "Fort Wayne",
      "state": "IN",
      "lat": 41.0562689,
      "lng": -85.2262143,
      "recent_items": [
        "The Dude Abides",
        "Tapestry Of Obscenity",
        "Socks And Sandals"
      ]
    },
    {
      "name": "BELMONT BEVERAGE 22 - ILLINOIS RD",
      "city": "Fort Wayne",
      "state": "IN",
      "lat": 41.0728349,
      "lng": -85.2762487,
      "recent_items": [
        "I'Ll Turn This Car Around",
        "Walk It Off",
        "Socks And Sandals"
      ]
    },
    {
      "name": "BELMONT BEVERAGE 05 - MAPLECREST",
      "city": "Fort Wayne",
      "state": "IN",
      "lat": 41.1023618,
      "lng": -85.06094949999999,
      "recent_items": [
        "You'Re Grounded Mister",
        "Kiss The Cook",
        "The Dude Abides"
      ]
    },
    {
      "name": "LIQGO 512 - CP MAIN",
      "city": "Crown Point",
      "state": "IN",
      "lat": 41.433324,
      "lng": -87.3641291,
      "recent_items": [
        "Tapestry Of Obscenity Light",
        "The Dude Abides"
      ]
    },
    {
      "name": "STRACK 8755 - LOWELL",
      "city": "Lowell",
      "state": "IN",
      "lat": 41.2889091,
      "lng": -87.392701,
      "recent_items": [
        "The Dude Abides",
        "Tapestry Of Obscenity"
      ]
    },
    {
      "name": "SHORTSTOP INN",
      "city": "Wakarusa",
      "state": "IN",
      "lat": 41.5362283,
      "lng": -86.020366,
      "recent_items": [
        "Back In My Day"
      ]
    },
    {
      "name": "PAPAS - CULVER",
      "city": "Culver",
      "state": "IN",
      "lat": 41.2205557,
      "lng": -86.41544789999999,
      "recent_items": [
        "Tapestry Of Obscenity"
      ]
    },
    {
      "name": "CHARLEY CREEK INN - WABASH",
      "city": "Wabash",
      "state": "IN",
      "lat": 40.79637659999999,
      "lng": -85.822785,
      "recent_items": [
        "Socks And Sandals",
        "Because I Said So",
        "Stud Finder Amber Ale"
      ]
    },
    {
      "name": "CROOKED LAKE GRILL",
      "city": "Angola",
      "state": "IN",
      "lat": 41.6800797,
      "lng": -85.03633239999999,
      "recent_items": [
        "Tapestry Of Obscenity"
      ]
    },
    {
      "name": "RED BARON LIQUORS - RENSSELAER",
      "city": "Rensselaer",
      "state": "IN",
      "lat": 40.9376951,
      "lng": -87.15049049999999,
      "recent_items": [
        "I'Ll Turn This Car Around",
        "Pull My Finger"
      ]
    },
    {
      "name": "FIDDLERS HEARTH",
      "city": "South Bend",
      "state": "IN",
      "lat": 41.6772891,
      "lng": -86.2523252,
      "recent_items": [
        "You'Re Grounded Mister"
      ]
    },
    {
      "name": "OAK AND ALLEY II - CENTER ST",
      "city": "Warsaw",
      "state": "IN",
      "lat": 41.2376967,
      "lng": -85.82485009999999,
      "recent_items": [
        "Kiss The Cook",
        "Socks And Sandals",
        "The Dude Abides"
      ]
    },
    {
      "name": "DOCK LIQUOR - COLUMBIA CITY",
      "city": "Columbia City",
      "state": "IN",
      "lat": 41.1707147,
      "lng": -85.4851097,
      "recent_items": [
        "I'Ll Turn This Car Around",
        "Pull My Finger",
        "The Dude Abides"
      ]
    },
    {
      "name": "CHANCE BAR",
      "city": "Fort Wayne",
      "state": "IN",
      "lat": 41.0451191,
      "lng": -85.1441766,
      "recent_items": [
        "The Dude Abides",
        "Tapestry Of Obscenity"
      ]
    },
    {
      "name": "MARTINS 11 - ERSKINE - SOUTH BEND",
      "city": "South Bend",
      "state": "IN",
      "lat": 41.6273735,
      "lng": -86.2377619,
      "recent_items": [
        "Tapestry Of Obscenity",
        "The Dude Abides"
      ]
    },
    {
      "name": "THE TABLE @ 108",
      "city": "Goshen",
      "state": "IN",
      "lat": 41.5867899,
      "lng": -85.83435,
      "recent_items": [
        "Socks And Sandals"
      ]
    },
    {
      "name": "OCTAVE GRILL",
      "city": "Chesterton",
      "state": "IN",
      "lat": 41.6112331,
      "lng": -87.0522191,
      "recent_items": [
        "Socks And Sandals",
        "You'Re Grounded Mister"
      ]
    },
    {
      "name": "AJS PIZZA - CHESTERTON",
      "city": "Chesterton",
      "state": "IN",
      "lat": 41.5782589,
      "lng": -87.0438401,
      "recent_items": [
        "Socks And Sandals",
        "I'Ll Turn This Car Around",
        "Kiss The Cook"
      ]
    },
    {
      "name": "VALPARAISO COUNTRY CLUB",
      "city": "Valparaiso",
      "state": "IN",
      "lat": 41.4992594,
      "lng": -87.0286936,
      "recent_items": [
        "Pull My Finger",
        "Tapestry Of Obscenity"
      ]
    },
    {
      "name": "COUNTY SEAT SOUTH - CROWN POINT",
      "city": "Crown Point",
      "state": "IN",
      "lat": 41.3996888,
      "lng": -87.3689148,
      "recent_items": [
        "Tapestry Of Obscenity"
      ]
    },
    {
      "name": "LINDERS",
      "city": "Lagrange",
      "state": "IN",
      "lat": 41.642599,
      "lng": -85.4175889,
      "recent_items": [
        "The Dude Abides",
        "Tapestry Of Obscenity Light"
      ]
    },
    {
      "name": "SAVE-ON LIQUOR 104 - MARION",
      "city": "Marion",
      "state": "IN",
      "lat": 40.5749847,
      "lng": -85.6750193,
      "recent_items": [
        "Tapestry Of Obscenity",
        "The Dude Abides",
        "Pull My Finger"
      ]
    },
    {
      "name": "BELMONT BEVERAGE BOTTLE & KEG - ROANOKE",
      "city": "Roanoke",
      "state": "IN",
      "lat": 40.9602869,
      "lng": -85.3714325,
      "recent_items": [
        "You'Re Grounded Mister",
        "Kiss The Cook"
      ]
    },
    {
      "name": "BIRDIE'S",
      "city": "Valparaiso",
      "state": "IN",
      "lat": 41.46755539999999,
      "lng": -87.0574692,
      "recent_items": [
        "I'Ll Turn This Car Around",
        "Kiss The Cook"
      ]
    },
    {
      "name": "YELLOW RIVER TAP & EATERY",
      "city": "Plymouth",
      "state": "IN",
      "lat": 41.3398065,
      "lng": -86.30866759999999,
      "recent_items": [
        "I'Ll Turn This Car Around",
        "Thermostat Police",
        "Back In My Day"
      ]
    },
    {
      "name": "MEGA LIQUOR 06 - RIVER PARK",
      "city": "South Bend",
      "state": "IN",
      "lat": 41.6659613,
      "lng": -86.2136718,
      "recent_items": [
        "Socks And Sandals"
      ]
    },
    {
      "name": "LIQGO 511 - CP SUMMIT",
      "city": "Crown Point",
      "state": "IN",
      "lat": 41.4279668,
      "lng": -87.3384866,
      "recent_items": [
        "Tapestry Of Obscenity",
        "The Dude Abides"
      ]
    },
    {
      "name": "CAP N CORK 03 - BROADWAY",
      "city": "Fort Wayne",
      "state": "IN",
      "lat": 41.075246,
      "lng": -85.1473444,
      "recent_items": [
        "Tapestry Of Obscenity",
        "Socks And Sandals"
      ]
    },
    {
      "name": "THE FRESH MARKET - 64",
      "city": "Fort Wayne",
      "state": "IN",
      "lat": 41.0589187,
      "lng": -85.223479,
      "recent_items": [
        "Pull My Finger",
        "Socks And Sandals",
        "Tapestry Of Obscenity"
      ]
    },
    {
      "name": "CAP N CORK 02 - GEORGETOWN",
      "city": "Fort Wayne",
      "state": "IN",
      "lat": 41.1023851,
      "lng": -85.0556965,
      "recent_items": [
        "The Dude Abides"
      ]
    },
    {
      "name": "WISEGUYS - CHESTERTON",
      "city": "Chesterton",
      "state": "IN",
      "lat": 41.59359,
      "lng": -87.0471694,
      "recent_items": [
        "You'Re Grounded Mister",
        "The Dude Abides",
        "Because I Said So"
      ]
    },
    {
      "name": "FSD POS -NEISWONGER",
      "city": "Columbia City",
      "state": "IN",
      "lat": 41.1386005,
      "lng": -85.41362790000001,
      "recent_items": [
        "Other"
      ]
    },
    {
      "name": "WAITING ROOM",
      "city": "Valparaiso",
      "state": "IN",
      "lat": 41.4669493,
      "lng": -87.0615657,
      "recent_items": [
        "Tapestry Of Obscenity"
      ]
    },
    {
      "name": "WISEGUYS - VALPARAISO",
      "city": "Valparaiso",
      "state": "IN",
      "lat": 41.4626564,
      "lng": -87.0864947,
      "recent_items": [
        "Because I Said So",
        "Stud Finder Amber Ale",
        "The Dude Abides"
      ]
    },
    {
      "name": "PAYNES CUSTARD & COFFEE",
      "city": "Gas City",
      "state": "IN",
      "lat": 40.481956,
      "lng": -85.54617449999999,
      "recent_items": [
        "You'Re Grounded Mister",
        "Socks And Sandals",
        "Tapestry Of Obscenity"
      ]
    },
    {
      "name": "NEIGHBORHOOD FRESH - GAS CITY",
      "city": "Gas City",
      "state": "IN",
      "lat": 40.4890968,
      "lng": -85.5939271,
      "recent_items": [
        "Socks And Sandals",
        "The Dude Abides",
        "Tapestry Of Obscenity"
      ]
    },
    {
      "name": "MISSISSINEWA CIGAR COMPANY",
      "city": "Gas City",
      "state": "IN",
      "lat": 40.4864221,
      "lng": -85.59460849999999,
      "recent_items": [
        "Tapestry Of Obscenity",
        "The Dude Abides"
      ]
    },
    {
      "name": "TAPHOUSE ON THE EDGE",
      "city": "South Bend",
      "state": "IN",
      "lat": 41.6972454,
      "lng": -86.22180499999999,
      "recent_items": [
        "The Dude Abides"
      ]
    },
    {
      "name": "THE LAUBER",
      "city": "South Bend",
      "state": "IN",
      "lat": 41.6788397,
      "lng": -86.2439808,
      "recent_items": [
        "The Dude Abides",
        "Back In My Day"
      ]
    },
    {
      "name": "CASK N CELLAR - SCHERERVILLE",
      "city": "Schererville",
      "state": "IN",
      "lat": 41.4814766,
      "lng": -87.47114429999999,
      "recent_items": [
        "Socks And Sandals"
      ]
    },
    {
      "name": "SYCAMORE HILLS GOLF CLUB",
      "city": "Fort Wayne",
      "state": "IN",
      "lat": 41.06351919999999,
      "lng": -85.2956841,
      "recent_items": [
        "The Dude Abides"
      ]
    },
    {
      "name": "COPPER SPOON",
      "city": "Fort Wayne",
      "state": "IN",
      "lat": 41.075499,
      "lng": -85.142298,
      "recent_items": [
        "The Dude Abides"
      ]
    },
    {
      "name": "TRADER JOES 757 - FORT WAYNE",
      "city": "Fort Wayne",
      "state": "IN",
      "lat": 41.0712769,
      "lng": -85.1959924,
      "recent_items": [
        "Tapestry Of Obscenity",
        "Socks And Sandals"
      ]
    },
    {
      "name": "ALBRIGHTS ONE STOP GROCERY INC",
      "city": "Corunna",
      "state": "IN",
      "lat": 41.437487,
      "lng": -85.14702199999999,
      "recent_items": [
        "Tapestry Of Obscenity"
      ]
    },
    {
      "name": "LIQGO 517 - VALPO NORTH (TRIANGLE)",
      "city": "Valparaiso",
      "state": "IN",
      "lat": 41.4980175,
      "lng": -87.04263449999999,
      "recent_items": [
        "Tapestry Of Obscenity",
        "Pull My Finger",
        "Kiss The Cook"
      ]
    },
    {
      "name": "HILTON - FTW DT",
      "city": "Fort Wayne",
      "state": "IN",
      "lat": 41.0767084,
      "lng": -85.1392819,
      "recent_items": [
        "Tapestry Of Obscenity",
        "Socks And Sandals"
      ]
    },
    {
      "name": "LAKERS - HAMILTON",
      "city": "Hamilton",
      "state": "IN",
      "lat": 41.5312011,
      "lng": -84.9153262,
      "recent_items": [
        "Kiss The Cook"
      ]
    },
    {
      "name": "LIQGO 513 - SCHERERVILLE",
      "city": "Schererville",
      "state": "IN",
      "lat": 41.5030945,
      "lng": -87.47297259999999,
      "recent_items": [
        "Schitzengiggels",
        "Tapestry Of Obscenity Light",
        "Kiss The Cook"
      ]
    },
    {
      "name": "CITY WIDE LIQUORS - GRAPE",
      "city": "Mishawaka",
      "state": "IN",
      "lat": 41.6956144,
      "lng": -86.188051,
      "recent_items": [
        "I'Ll Turn This Car Around",
        "The Dude Abides",
        "Tapestry Of Obscenity"
      ]
    },
    {
      "name": "HAMMER & QUILL",
      "city": "South Bend",
      "state": "IN",
      "lat": 41.6753091,
      "lng": -86.24221419999999,
      "recent_items": [
        "The Dude Abides"
      ]
    },
    {
      "name": "BROOKE ASCHLIMAN",
      "city": "Huntington",
      "state": "IN",
      "lat": 40.9343282,
      "lng": -85.56410980000001,
      "recent_items": [
        "Tapestry Of Obscenity Light"
      ]
    },
    {
      "name": "MARTINS 25 - HERITAGE - GRANGER",
      "city": "Granger",
      "state": "IN",
      "lat": 41.7258887,
      "lng": -86.1737454,
      "recent_items": [
        "Tapestry Of Obscenity",
        "The Dude Abides"
      ]
    },
    {
      "name": "6 AUTUMNS",
      "city": "Angola",
      "state": "IN",
      "lat": 41.7015558,
      "lng": -85.04721839999999,
      "recent_items": [
        "Socks And Sandals"
      ]
    },
    {
      "name": "SAVE-ON LIQUOR 119 - BLUFFTON",
      "city": "Bluffton",
      "state": "IN",
      "lat": 40.7278565,
      "lng": -85.1716435,
      "recent_items": [
        "You'Re Grounded Mister",
        "The Dude Abides"
      ]
    },
    {
      "name": "BLACK CANYON RESTAURANT",
      "city": "Fort Wayne",
      "state": "IN",
      "lat": 41.176016,
      "lng": -85.16234399999999,
      "recent_items": [
        "The Dude Abides",
        "Other",
        "Back In My Day"
      ]
    },
    {
      "name": "LIQUOR STOP - HIGHLAND",
      "city": "Highland",
      "state": "IN",
      "lat": 41.5462257,
      "lng": -87.4718893,
      "recent_items": [
        "You'Re Grounded Mister",
        "Pull My Finger"
      ]
    },
    {
      "name": "GAYS PARTY STORE 3 - FREMONT",
      "city": "Fremont",
      "state": "IN",
      "lat": 41.730993,
      "lng": -84.9322014,
      "recent_items": [
        "The Dude Abides"
      ]
    },
    {
      "name": "CAP N CORK 14 - NORTH BROOK VI",
      "city": "Fort Wayne",
      "state": "IN",
      "lat": 41.1745087,
      "lng": -85.1646998,
      "recent_items": [
        "You'Re Grounded Mister",
        "Tapestry Of Obscenity",
        "Socks And Sandals"
      ]
    },
    {
      "name": "THE VENUE",
      "city": "Angola",
      "state": "IN",
      "lat": 41.6350848,
      "lng": -84.99999489999999,
      "recent_items": [
        "Pull My Finger",
        "Kiss The Cook"
      ]
    },
    {
      "name": "UPLAND LIQUOR",
      "city": "Upland",
      "state": "IN",
      "lat": 40.4662212,
      "lng": -85.49273889999999,
      "recent_items": [
        "The Dude Abides",
        "You'Re Grounded Mister"
      ]
    },
    {
      "name": "BOMBERS BBQ - CROWN POINT",
      "city": "Crown Point",
      "state": "IN",
      "lat": 41.4143829,
      "lng": -87.33624259999999,
      "recent_items": [
        "Tapestry Of Obscenity",
        "Back In My Day",
        "The Dude Abides"
      ]
    },
    {
      "name": "MARTINS 26 - WARSAW",
      "city": "Warsaw",
      "state": "IN",
      "lat": 41.2502615,
      "lng": -85.82190489999999,
      "recent_items": [
        "Tapestry Of Obscenity",
        "The Dude Abides",
        "Pull My Finger"
      ]
    },
    {
      "name": "SAVE-ON LIQUOR 123 - S WEST AVE",
      "city": "Marion",
      "state": "IN",
      "lat": 40.5255268,
      "lng": -85.6731002,
      "recent_items": [
        "Kiss The Cook",
        "The Dude Abides",
        "Pull My Finger"
      ]
    },
    {
      "name": "MEGA LIQUOR & SMOKE 17 - IRELAND RD",
      "city": "South Bend",
      "state": "IN",
      "lat": 41.62869389999999,
      "lng": -86.24801149999999,
      "recent_items": [
        "The Dude Abides"
      ]
    },
    {
      "name": "TRAIL CREEK LIQUORS",
      "city": "Michigan City",
      "state": "IN",
      "lat": 41.6879669,
      "lng": -86.8593216,
      "recent_items": [
        "Bent Oak Blonde Ale",
        "The Dude Abides"
      ]
    },
    {
      "name": "SHADY CREEK WINERY",
      "city": "Michigan City",
      "state": "IN",
      "lat": 41.724656,
      "lng": -86.8277459,
      "recent_items": [
        "You'Re Grounded Mister"
      ]
    },
    {
      "name": "BRENDAN HANCZ",
      "city": "Mishawaka",
      "state": "IN",
      "lat": 41.6275384,
      "lng": -86.1597711,
      "recent_items": [
        "Tapestry Of Obscenity Light"
      ]
    },
    {
      "name": "STRACK 8749 - VALPO SOUTH",
      "city": "Valparaiso",
      "state": "IN",
      "lat": 41.4590472,
      "lng": -87.0343925,
      "recent_items": [
        "The Dude Abides",
        "You'Re Grounded Mister",
        "Socks And Sandals"
      ]
    },
    {
      "name": "SPIKES BEACH BAR - WARSAW",
      "city": "Warsaw",
      "state": "IN",
      "lat": 41.2270429,
      "lng": -85.8690933,
      "recent_items": [
        "The Dude Abides",
        "Tapestry Of Obscenity Light"
      ]
    },
    {
      "name": "THE GREAT ESCAPE",
      "city": "Crown Point",
      "state": "IN",
      "lat": 41.4158874,
      "lng": -87.363974,
      "recent_items": [
        "Tapestry Of Obscenity"
      ]
    },
    {
      "name": "SAVE-ON LIQUOR 130 - FAIRMONT",
      "city": "Fairmount",
      "state": "IN",
      "lat": 40.415865,
      "lng": -85.6516608,
      "recent_items": [
        "I'Ll Turn This Car Around",
        "You'Re Grounded Mister",
        "The Dude Abides"
      ]
    },
    {
      "name": "LIQGO 510 - SCHERERVILLE",
      "city": "Schererville",
      "state": "IN",
      "lat": 41.4794351,
      "lng": -87.4325288,
      "recent_items": [
        "I'Ll Turn This Car Around",
        "The Dude Abides",
        "Tapestry Of Obscenity Light"
      ]
    },
    {
      "name": "WINGS ETC - MARION",
      "city": "Marion",
      "state": "IN",
      "lat": 40.5467144,
      "lng": -85.6745163,
      "recent_items": [
        "The Dude Abides"
      ]
    },
    {
      "name": "OSULLIVANS - MAIN ST",
      "city": "Fort Wayne",
      "state": "IN",
      "lat": 41.0787447,
      "lng": -85.1655753,
      "recent_items": [
        "Tapestry Of Obscenity Light"
      ]
    },
    {
      "name": "THE WOODEN PEEL",
      "city": "Bremen",
      "state": "IN",
      "lat": 41.4463979,
      "lng": -86.1468914,
      "recent_items": [
        "Pull My Finger",
        "You'Re Grounded Mister",
        "Other"
      ]
    },
    {
      "name": "SOUTH SHORE DRIFT COMPANY",
      "city": "Chesterton",
      "state": "IN",
      "lat": 41.5750827,
      "lng": -87.0440792,
      "recent_items": [
        "Tapestry Of Obscenity"
      ]
    },
    {
      "name": "MEGA LIQUOR 16 - LWE-MISHAWAKA",
      "city": "Mishawaka",
      "state": "IN",
      "lat": 41.6633799,
      "lng": -86.1236627,
      "recent_items": [
        "Tapestry Of Obscenity Light"
      ]
    },
    {
      "name": "HANDY SPOT LIQUOR - GARY",
      "city": "Gary",
      "state": "IN",
      "lat": 41.5949545,
      "lng": -87.27990129999999,
      "recent_items": [
        "Pull My Finger"
      ]
    },
    {
      "name": "BEST STOP LIQUORS",
      "city": "Merrillville",
      "state": "IN",
      "lat": 41.4798434,
      "lng": -87.3366262,
      "recent_items": [
        "Socks And Sandals"
      ]
    },
    {
      "name": "NEIGHBORHOOD FRESH - SYRACUSE",
      "city": "Syracuse",
      "state": "IN",
      "lat": 41.4148814,
      "lng": -85.7459946,
      "recent_items": [
        "You'Re Grounded Mister",
        "The Dude Abides"
      ]
    },
    {
      "name": "BUCKET HEADS",
      "city": "South Bend",
      "state": "IN",
      "lat": 41.6737668,
      "lng": -86.2548597,
      "recent_items": [
        "The Dude Abides",
        "You'Re Grounded Mister",
        "Other"
      ]
    },
    {
      "name": "THE CRAFT HOUSE - CHESTERTON",
      "city": "Chesterton",
      "state": "IN",
      "lat": 41.618539,
      "lng": -87.04406139999999,
      "recent_items": [
        "Back In My Day"
      ]
    },
    {
      "name": "DEER PARK PUB - FORT WAYNE",
      "city": "Fort Wayne",
      "state": "IN",
      "lat": 41.088461,
      "lng": -85.1713803,
      "recent_items": [
        "Tapestry Of Obscenity Light"
      ]
    },
    {
      "name": "STRACK 8748 - CHESTERTON",
      "city": "Chesterton",
      "state": "IN",
      "lat": 41.595273,
      "lng": -87.0441311,
      "recent_items": [
        "You'Re Grounded Mister",
        "Tapestry Of Obscenity"
      ]
    },
    {
      "name": "HOUSE OF SPIRITS - KENDALLVILLE",
      "city": "Kendallville",
      "state": "IN",
      "lat": 41.4518811,
      "lng": -85.26977629999999,
      "recent_items": [
        "Tapestry Of Obscenity Light"
      ]
    },
    {
      "name": "THE DOWNTOWN - WARSAW",
      "city": "Warsaw",
      "state": "IN",
      "lat": 41.237906,
      "lng": -85.8584197,
      "recent_items": [
        "Tapestry Of Obscenity"
      ]
    },
    {
      "name": "DOCs SMOKEHOUSE AND CRAFT BEER",
      "city": "Dyer",
      "state": "IN",
      "lat": 41.5054531,
      "lng": -87.50970819999999,
      "recent_items": [
        "The Dude Abides"
      ]
    },
    {
      "name": "MEGA LIQUOR & SMOKE 22 - WABASH",
      "city": "Wabash",
      "state": "IN",
      "lat": 40.8061234,
      "lng": -85.8295493,
      "recent_items": [
        "The Dude Abides",
        "Kiss The Cook",
        "Tapestry Of Obscenity"
      ]
    },
    {
      "name": "MARTINS 10 - SB AVE-SOUTH BEND",
      "city": "South Bend",
      "state": "IN",
      "lat": 41.7009474,
      "lng": -86.2185495,
      "recent_items": [
        "Tapestry Of Obscenity",
        "The Dude Abides"
      ]
    },
    {
      "name": "KING RICHARDS WINE & SPIRITS",
      "city": "Michigan City",
      "state": "IN",
      "lat": 41.6923677,
      "lng": -86.8942848,
      "recent_items": [
        "Pull My Finger"
      ]
    },
    {
      "name": "WISEGUYS - HOBART",
      "city": "Merrillville",
      "state": "IN",
      "lat": 41.4738775,
      "lng": -87.3150165,
      "recent_items": [
        "The Dude Abides",
        "Because I Said So",
        "Stud Finder Amber Ale"
      ]
    },
    {
      "name": "BURGERHAUS - VALPARAISO",
      "city": "Valparaiso",
      "state": "IN",
      "lat": 41.4986706,
      "lng": -87.04204589999999,
      "recent_items": [
        "Socks And Sandals",
        "You'Re Grounded Mister",
        "Pull My Finger"
      ]
    },
    {
      "name": "WINGS ETC - WABASH",
      "city": "Wabash",
      "state": "IN",
      "lat": 40.8173312,
      "lng": -85.8367219,
      "recent_items": [
        "Tapestry Of Obscenity"
      ]
    },
    {
      "name": "KENNAN LIQUORS 1",
      "city": "Dyer",
      "state": "IN",
      "lat": 41.4946829,
      "lng": -87.524292,
      "recent_items": [
        "The Dude Abides",
        "Pull My Finger"
      ]
    },
    {
      "name": "WINFIELD LIQUORS",
      "city": "Crown Point",
      "state": "IN",
      "lat": 41.4234652,
      "lng": -87.2396505,
      "recent_items": [
        "Tapestry Of Obscenity Light"
      ]
    },
    {
      "name": "VIRKS DISCOUNT LIQUORS LAPORTE",
      "city": "Laporte",
      "state": "IN",
      "lat": 41.6135106,
      "lng": -86.7195631,
      "recent_items": [
        "Tapestry Of Obscenity Light"
      ]
    },
    {
      "name": "GAYS PARTY STORE 6 - ANGOLA",
      "city": "Angola",
      "state": "IN",
      "lat": 41.6354581,
      "lng": -85.02655349999999,
      "recent_items": [
        "Pull My Finger",
        "Tapestry Of Obscenity"
      ]
    },
    {
      "name": "VENTURI",
      "city": "Goshen",
      "state": "IN",
      "lat": 41.5866429,
      "lng": -85.833466,
      "recent_items": [
        "Tapestry Of Obscenity"
      ]
    },
    {
      "name": "NOVA'S",
      "city": "Goshen",
      "state": "IN",
      "lat": 41.5866603,
      "lng": -85.833946,
      "recent_items": [
        "Tapestry Of Obscenity"
      ]
    },
    {
      "name": "BELMONT BEVERAGE 39 - IRELAND",
      "city": "South Bend",
      "state": "IN",
      "lat": 41.6303934,
      "lng": -86.2170805,
      "recent_items": [
        "Socks And Sandals",
        "Kiss The Cook"
      ]
    },
    {
      "name": "BYLER LANE WINERY",
      "city": "Auburn",
      "state": "IN",
      "lat": 41.3186883,
      "lng": -85.0249438,
      "recent_items": [
        "Kiss The Cook",
        "Socks And Sandals"
      ]
    },
    {
      "name": "BARREL & BLAZE",
      "city": "Auburn",
      "state": "IN",
      "lat": 41.366752,
      "lng": -85.0561226,
      "recent_items": [
        "The Dude Abides"
      ]
    },
    {
      "name": "BELMONT BEVERAGE 20 - LIMA RD",
      "city": "Fort Wayne",
      "state": "IN",
      "lat": 41.1555142,
      "lng": -85.1663128,
      "recent_items": [
        "The Dude Abides",
        "You'Re Grounded Mister"
      ]
    },
    {
      "name": "BLUE POINT",
      "city": "Valparaiso",
      "state": "IN",
      "lat": 41.4681096,
      "lng": -87.0603411,
      "recent_items": [
        "Tapestry Of Obscenity",
        "Pull My Finger"
      ]
    },
    {
      "name": "BELMONT BEVERAGE 04 - WAYNEDALE",
      "city": "Fort Wayne",
      "state": "IN",
      "lat": 41.0304205,
      "lng": -85.1668512,
      "recent_items": [
        "Kiss The Cook",
        "The Dude Abides"
      ]
    },
    {
      "name": "STATE LINE PIZZA - DYER",
      "city": "Dyer",
      "state": "IN",
      "lat": 41.4986763,
      "lng": -87.5212311,
      "recent_items": [
        "The Dude Abides"
      ]
    },
    {
      "name": "BELMONT BEVERAGE 06 - TIMES CORNERS",
      "city": "Fort Wayne",
      "state": "IN",
      "lat": 41.061008,
      "lng": -85.218911,
      "recent_items": [
        "The Dude Abides"
      ]
    },
    {
      "name": "JAVA BOWL",
      "city": "South Bend",
      "state": "IN",
      "lat": 41.6746784,
      "lng": -86.25233209999999,
      "recent_items": [
        "The Dude Abides"
      ]
    },
    {
      "name": "PIVOT LOUNGE - CROWN POINT",
      "city": "Crown Point",
      "state": "IN",
      "lat": 41.41413610000001,
      "lng": -87.38337969999999,
      "recent_items": [
        "I'Ll Turn This Car Around",
        "The Dude Abides",
        "Other"
      ]
    },
    {
      "name": "SERVICE LIQUOR EAST - WARSAW",
      "city": "Warsaw",
      "state": "IN",
      "lat": 41.2289016,
      "lng": -85.79903279999999,
      "recent_items": [
        "Stud Finder Amber Ale",
        "Socks And Sandals",
        "The Dude Abides"
      ]
    },
    {
      "name": "BOATHOUSE RESTAURANT-WINNONA LAKE",
      "city": "Winona Lake",
      "state": "IN",
      "lat": 41.2280401,
      "lng": -85.8225578,
      "recent_items": [
        "Kiss The Cook",
        "Tapestry Of Obscenity"
      ]
    },
    {
      "name": "GAYS PARTY STORE 4 - LAGRANGE",
      "city": "Lagrange",
      "state": "IN",
      "lat": 41.64141679999999,
      "lng": -85.4179439,
      "recent_items": [
        "Pull My Finger"
      ]
    },
    {
      "name": "ESTELLA'S CANTINA",
      "city": "Gary",
      "state": "IN",
      "lat": 41.6000551,
      "lng": -87.267079,
      "recent_items": [
        "Tapestry Of Obscenity"
      ]
    },
    {
      "name": "LIQGO 520 - MICHIGAN CITY",
      "city": "Michigan City",
      "state": "IN",
      "lat": 41.6691296,
      "lng": -86.8951921,
      "recent_items": [
        "Socks And Sandals",
        "Pull My Finger",
        "Tapestry Of Obscenity"
      ]
    },
    {
      "name": "BLARNEY STONE 1 - MCKINLEY",
      "city": "South Bend",
      "state": "IN",
      "lat": 41.6794757,
      "lng": -86.20508079999999,
      "recent_items": [
        "Tapestry Of Obscenity",
        "Pull My Finger"
      ]
    },
    {
      "name": "PEANUTS - CANTERBURY",
      "city": "Fort Wayne",
      "state": "IN",
      "lat": 41.1319992,
      "lng": -85.10236139999999,
      "recent_items": [
        "Tapestry Of Obscenity"
      ]
    },
    {
      "name": "STRACK 8797 - BROADWAY",
      "city": "Crown Point",
      "state": "IN",
      "lat": 41.4221618,
      "lng": -87.3325129,
      "recent_items": [
        "Kiss The Cook"
      ]
    },
    {
      "name": "MARTINS 17 - BRISTOL - ELKHART",
      "city": "Elkhart",
      "state": "IN",
      "lat": 41.7040174,
      "lng": -85.9147709,
      "recent_items": [
        "The Dude Abides",
        "Tapestry Of Obscenity"
      ]
    },
    {
      "name": "STRACK 8750 - VALPO NORTH",
      "city": "Valparaiso",
      "state": "IN",
      "lat": 41.4934662,
      "lng": -87.0444273,
      "recent_items": [
        "The Dude Abides",
        "Tapestry Of Obscenity",
        "You'Re Grounded Mister"
      ]
    },
    {
      "name": "BUGABOOS",
      "city": "Cedar Lake",
      "state": "IN",
      "lat": 41.3785771,
      "lng": -87.4438244,
      "recent_items": [
        "Pull My Finger",
        "Socks And Sandals"
      ]
    },
    {
      "name": "HOUSE OF SPIRITS - AUBURN",
      "city": "Auburn",
      "state": "IN",
      "lat": 41.366325,
      "lng": -85.0530473,
      "recent_items": [
        "Schitzengiggels"
      ]
    },
    {
      "name": "BACKROADS TAVERN",
      "city": "Wolcottville",
      "state": "IN",
      "lat": 41.5403212,
      "lng": -85.4375033,
      "recent_items": [
        "You'Re Grounded Mister",
        "Tapestry Of Obscenity"
      ]
    },
    {
      "name": "PEDDLERS PIZZA PUB",
      "city": "Valparaiso",
      "state": "IN",
      "lat": 41.4680037,
      "lng": -87.06064719999999,
      "recent_items": [
        "Kiss The Cook",
        "Socks And Sandals",
        "The Dude Abides"
      ]
    },
    {
      "name": "VALPO POUR HOUSE",
      "city": "Valparaiso",
      "state": "IN",
      "lat": 41.4680434,
      "lng": -87.0612943,
      "recent_items": [
        "Kiss The Cook"
      ]
    },
    {
      "name": "SHADY NOOK INN - HUDSON",
      "city": "Hudson",
      "state": "IN",
      "lat": 41.5550028,
      "lng": -85.2298589,
      "recent_items": [
        "Pull My Finger"
      ]
    },
    {
      "name": "BLARNEY STONE 2 - LINCOLNWAY",
      "city": "South Bend",
      "state": "IN",
      "lat": 41.6940964,
      "lng": -86.3022828,
      "recent_items": [
        "Pull My Finger"
      ]
    },
    {
      "name": "STRACK 8768 - SCHERERVILLE",
      "city": "Schererville",
      "state": "IN",
      "lat": 41.4944785,
      "lng": -87.46898999999999,
      "recent_items": [
        "The Dude Abides"
      ]
    },
    {
      "name": "1802 SPY RUN LLC",
      "city": "Fort Wayne",
      "state": "IN",
      "lat": 41.0920075,
      "lng": -85.1342495,
      "recent_items": [
        "Tapestry Of Obscenity",
        "Other"
      ]
    },
    {
      "name": "CAP N CORK 10 -  MAYSVILLE",
      "city": "Fort Wayne",
      "state": "IN",
      "lat": 41.1286446,
      "lng": -85.0116508,
      "recent_items": [
        "The Dude Abides",
        "Socks And Sandals",
        "Kiss The Cook"
      ]
    },
    {
      "name": "THE STANDARD TAPROOM",
      "city": "Whiting",
      "state": "IN",
      "lat": 41.6791399,
      "lng": -87.49571279999999,
      "recent_items": [
        "Thermostat Police"
      ]
    },
    {
      "name": "SMOKETOWN BLUES",
      "city": "Valparaiso",
      "state": "IN",
      "lat": 41.4680777,
      "lng": -87.0617693,
      "recent_items": [
        "You'Re Grounded Mister",
        "Other"
      ]
    },
    {
      "name": "OBIS BARBECUE",
      "city": "Marion",
      "state": "IN",
      "lat": 40.5576819,
      "lng": -85.66014419999999,
      "recent_items": [
        "Tapestry Of Obscenity"
      ]
    },
    {
      "name": "BLARNEY STONE 7 - MIAMI",
      "city": "South Bend",
      "state": "IN",
      "lat": 41.6284702,
      "lng": -86.23526989999999,
      "recent_items": [
        "The Dude Abides"
      ]
    },
    {
      "name": "UNION SOCIAL",
      "city": "Fort Wayne",
      "state": "IN",
      "lat": 41.19901309999999,
      "lng": -85.13220869999999,
      "recent_items": [
        "The Dude Abides",
        "Other"
      ]
    },
    {
      "name": "BELMONT BEVERAGE 19 - STELLHORN",
      "city": "Fort Wayne",
      "state": "IN",
      "lat": 41.1201716,
      "lng": -85.0234175,
      "recent_items": [
        "The Dude Abides"
      ]
    },
    {
      "name": "FACTORY HALLS",
      "city": "Fort Wayne",
      "state": "IN",
      "lat": 41.1314925,
      "lng": -85.1365538,
      "recent_items": [
        "Pull My Finger",
        "You'Re Grounded Mister",
        "The Dude Abides"
      ]
    },
    {
      "name": "DASH 90 WINES",
      "city": "Warren",
      "state": "IN",
      "lat": 40.6096624,
      "lng": -85.3483239,
      "recent_items": [
        "Tapestry Of Obscenity",
        "I'Ll Turn This Car Around",
        "Bent Oak Blonde Ale"
      ]
    },
    {
      "name": "TOMATO BAR - VALPARAISO",
      "city": "Valparaiso",
      "state": "IN",
      "lat": 41.4670596,
      "lng": -87.03277469999999,
      "recent_items": [
        "Tapestry Of Obscenity",
        "I'Ll Turn This Car Around"
      ]
    },
    {
      "name": "BELMONT BEVERAGE 40 - DECATUR INDIANA",
      "city": "Decatur",
      "state": "IN",
      "lat": 40.833523,
      "lng": -84.9373864,
      "recent_items": [
        "The Dude Abides",
        "Tapestry Of Obscenity",
        "Pull My Finger"
      ]
    },
    {
      "name": "DECATUR PACKAGE",
      "city": "Decatur",
      "state": "IN",
      "lat": 40.8288274,
      "lng": -84.937305,
      "recent_items": [
        "You'Re Grounded Mister",
        "Pull My Finger"
      ]
    },
    {
      "name": "WHOLE FOODS 10585 - SCHERERVILLE",
      "city": "Schererville",
      "state": "IN",
      "lat": 41.5192379,
      "lng": -87.47053509999999,
      "recent_items": [
        "The Dude Abides"
      ]
    },
    {
      "name": "18TH STREET BREWERY - GARY",
      "city": "Gary",
      "state": "IN",
      "lat": 41.5990744,
      "lng": -87.26720999999999,
      "recent_items": [
        "Pull My Finger"
      ]
    },
    {
      "name": "SOL BIRD - DUPONT",
      "city": "Fort Wayne",
      "state": "IN",
      "lat": 41.1787264,
      "lng": -85.1679425,
      "recent_items": [
        "Socks And Sandals",
        "Other",
        "Tapestry Of Obscenity"
      ]
    },
    {
      "name": "S&V LIQUOR 6 - DUPONT",
      "city": "Fort Wayne",
      "state": "IN",
      "lat": 41.1787682,
      "lng": -85.1278696,
      "recent_items": [
        "The Dude Abides"
      ]
    },
    {
      "name": "J & J LIQUORS - LAPORTE",
      "city": "Laporte",
      "state": "IN",
      "lat": 41.6183852,
      "lng": -86.7051051,
      "recent_items": [
        "The Dude Abides"
      ]
    },
    {
      "name": "MANNY'S",
      "city": "South Bend",
      "state": "IN",
      "lat": 41.6780201,
      "lng": -86.2441903,
      "recent_items": [
        "You'Re Grounded Mister"
      ]
    },
    {
      "name": "CAP N CORK 15 - ST JOE CANTERBURY",
      "city": "Fort Wayne",
      "state": "IN",
      "lat": 41.1192095,
      "lng": -85.09982169999999,
      "recent_items": [
        "The Dude Abides"
      ]
    },
    {
      "name": "CERULEAN RESTURANT-WINONA LAKE",
      "city": "Winona Lake",
      "state": "IN",
      "lat": 41.2248423,
      "lng": -85.82236189999999,
      "recent_items": [
        "Tapestry Of Obscenity",
        "Other"
      ]
    },
    {
      "name": "313 TAPROOM - MUNSTER",
      "city": "Munster",
      "state": "IN",
      "lat": 41.5629965,
      "lng": -87.51937679999999,
      "recent_items": [
        "Socks And Sandals"
      ]
    },
    {
      "name": "ROBS MEAT AND DELI",
      "city": "Dyer",
      "state": "IN",
      "lat": 41.4933451,
      "lng": -87.5014683,
      "recent_items": [
        "Schitzengiggels",
        "Pull My Finger"
      ]
    },
    {
      "name": "THE BLACK SHEEP",
      "city": "Shipshewana",
      "state": "IN",
      "lat": 41.6768974,
      "lng": -85.5791368,
      "recent_items": [
        "Other"
      ]
    },
    {
      "name": "ROCKSTEADY PIZZA PARLOUR",
      "city": "Warsaw",
      "state": "IN",
      "lat": 41.2368824,
      "lng": -85.8561008,
      "recent_items": [
        "Other",
        "Socks And Sandals"
      ]
    },
    {
      "name": "THE HANGAR BAR & GRILL",
      "city": "Lacrosse",
      "state": "IN",
      "lat": 41.317546,
      "lng": -86.89095700000001,
      "recent_items": [
        "Pull My Finger"
      ]
    },
    {
      "name": "STRACK 8752 - RANDOLPH",
      "city": "Crown Point",
      "state": "IN",
      "lat": 41.4213932,
      "lng": -87.2367196,
      "recent_items": [
        "Tapestry Of Obscenity"
      ]
    },
    {
      "name": "EAT N PARK - VALPO UNIVERSITY",
      "city": "Valparaiso",
      "state": "IN",
      "lat": 41.4641601,
      "lng": -87.04228309999999,
      "recent_items": [
        "I'Ll Turn This Car Around",
        "Tapestry Of Obscenity"
      ]
    },
    {
      "name": "SAVE-ON LIQUOR 117 - PARKMOOR HUNTINGTON",
      "city": "Huntington",
      "state": "IN",
      "lat": 40.891925,
      "lng": -85.50288379999999,
      "recent_items": [
        "I'Ll Turn This Car Around",
        "Socks And Sandals",
        "Tapestry Of Obscenity"
      ]
    },
    {
      "name": "CITY WIDE LIQUORS - LASALLE",
      "city": "South Bend",
      "state": "IN",
      "lat": 41.6788397,
      "lng": -86.2439808,
      "recent_items": [
        "Because I Said So",
        "Stud Finder Amber Ale",
        "Bent Oak Blonde Ale"
      ]
    },
    {
      "name": "S&V LIQUOR 8 - CHURUBUSCO",
      "city": "Churubusco",
      "state": "IN",
      "lat": 41.224761,
      "lng": -85.3165705,
      "recent_items": [
        "The Dude Abides",
        "Tapestry Of Obscenity",
        "You'Re Grounded Mister"
      ]
    },
    {
      "name": "STRACK 8787 - FRANCISCAN",
      "city": "Crown Point",
      "state": "IN",
      "lat": 41.399029,
      "lng": -87.367115,
      "recent_items": [
        "Tapestry Of Obscenity"
      ]
    },
    {
      "name": "MUNSTER FOOD MART",
      "city": "Munster",
      "state": "IN",
      "lat": 41.5513503,
      "lng": -87.49094889999999,
      "recent_items": [
        "The Dude Abides"
      ]
    },
    {
      "name": "CITY WIDE LIQUORS - BITTERSWEET",
      "city": "Mishawaka",
      "state": "IN",
      "lat": 41.664774,
      "lng": -86.11014530000001,
      "recent_items": [
        "Kiss The Cook",
        "Because I Said So",
        "Stud Finder Amber Ale"
      ]
    },
    {
      "name": "SCOTTY - WABASH",
      "city": "Wabash",
      "state": "IN",
      "lat": 40.8139346,
      "lng": -85.81055870000002,
      "recent_items": [
        "Tapestry Of Obscenity"
      ]
    },
    {
      "name": "THE ABSTRACT",
      "city": "Fort Wayne",
      "state": "IN",
      "lat": 41.0740195,
      "lng": -85.14807569999999,
      "recent_items": [
        "Other",
        "The Dude Abides"
      ]
    },
    {
      "name": "LEEDS PUBLIC HOUSE",
      "city": "Michigan City",
      "state": "IN",
      "lat": 41.7181417,
      "lng": -86.9025721,
      "recent_items": [
        "Tapestry Of Obscenity",
        "Kiss The Cook"
      ]
    },
    {
      "name": "MARTINS 24 - GOSHEN",
      "city": "Goshen",
      "state": "IN",
      "lat": 41.5957915,
      "lng": -85.8560127,
      "recent_items": [
        "Tapestry Of Obscenity"
      ]
    },
    {
      "name": "CHALET 11 PARTY SHOPPES - MIDDLEBURY",
      "city": "Middlebury",
      "state": "IN",
      "lat": 41.6787461,
      "lng": -85.7062254,
      "recent_items": [
        "The Dude Abides",
        "Socks And Sandals"
      ]
    },
    {
      "name": "BELMONT BEVERAGE 32 - SOUTH BEND AVE",
      "city": "South Bend",
      "state": "IN",
      "lat": 41.6939892,
      "lng": -86.2248678,
      "recent_items": [
        "The Dude Abides",
        "Tapestry Of Obscenity",
        "Pull My Finger"
      ]
    },
    {
      "name": "GELSOSOMOS - CROWN POINT",
      "city": "Crown Point",
      "state": "IN",
      "lat": 41.4122373,
      "lng": -87.3344144,
      "recent_items": [
        "Stud Finder Amber Ale",
        "I'Ll Turn This Car Around"
      ]
    },
    {
      "name": "S&V LIQUOR - GARRETT",
      "city": "Garrett",
      "state": "IN",
      "lat": 41.333651,
      "lng": -85.13511249999999,
      "recent_items": [
        "Tapestry Of Obscenity"
      ]
    },
    {
      "name": "TOLON",
      "city": "Fort Wayne",
      "state": "IN",
      "lat": 41.0808603,
      "lng": -85.1419054,
      "recent_items": [
        "Socks And Sandals"
      ]
    },
    {
      "name": "RADIUS - VALPARAISO",
      "city": "Valparaiso",
      "state": "IN",
      "lat": 41.4679375,
      "lng": -87.0601429,
      "recent_items": [
        "Socks And Sandals",
        "Pull My Finger"
      ]
    },
    {
      "name": "BEEF MART - VALPARAISO",
      "city": "Valparaiso",
      "state": "IN",
      "lat": 41.4749042,
      "lng": -87.0460425,
      "recent_items": [
        "I'Ll Turn This Car Around"
      ]
    },
    {
      "name": "ONE EYED JACKS",
      "city": "Winamac",
      "state": "IN",
      "lat": 41.0517439,
      "lng": -86.6043088,
      "recent_items": [
        "You'Re Grounded Mister",
        "Kiss The Cook"
      ]
    },
    {
      "name": "DYES BAR & GRILL",
      "city": "Wabash",
      "state": "IN",
      "lat": 40.7960056,
      "lng": -85.8292433,
      "recent_items": [
        "Kiss The Cook"
      ]
    },
    {
      "name": "BELMONT BEVERAGE 24 - TILLMAN RD",
      "city": "Fort Wayne",
      "state": "IN",
      "lat": 41.0170128,
      "lng": -85.11774989999999,
      "recent_items": [
        "Tapestry Of Obscenity"
      ]
    },
    {
      "name": "MARTINS 16 - SR 23-GRANGER",
      "city": "Granger",
      "state": "IN",
      "lat": 41.7513123,
      "lng": -86.1187988,
      "recent_items": [
        "Tapestry Of Obscenity"
      ]
    },
    {
      "name": "BIG TIME BURGERS & BREW",
      "city": "Portage",
      "state": "IN",
      "lat": 41.5784473,
      "lng": -87.17073959999999,
      "recent_items": [
        "The Dude Abides"
      ]
    },
    {
      "name": "ALS SUPERMARKET -  KARWICK",
      "city": "Michigan City",
      "state": "IN",
      "lat": 41.7340573,
      "lng": -86.85740109999999,
      "recent_items": [
        "The Dude Abides"
      ]
    },
    {
      "name": "MAPLE & BACON",
      "city": "Valparaiso",
      "state": "IN",
      "lat": 41.4388219,
      "lng": -87.1069053,
      "recent_items": [
        "You'Re Grounded Mister"
      ]
    },
    {
      "name": "TIME OUT INN - WARSAW",
      "city": "Warsaw",
      "state": "IN",
      "lat": 41.2475887,
      "lng": -85.8822681,
      "recent_items": [
        "Other"
      ]
    },
    {
      "name": "WESTVILLE LIQUORS",
      "city": "Westville",
      "state": "IN",
      "lat": 41.54180059999999,
      "lng": -86.896835,
      "recent_items": [
        "Pull My Finger"
      ]
    },
    {
      "name": "MARTINS 22 - PLYMOUTH",
      "city": "Plymouth",
      "state": "IN",
      "lat": 41.3454171,
      "lng": -86.297688,
      "recent_items": [
        "The Dude Abides",
        "Tapestry Of Obscenity"
      ]
    },
    {
      "name": "SE: STOCKROOM EAST",
      "city": "South Bend",
      "state": "IN",
      "lat": 41.6754799,
      "lng": -86.2418161,
      "recent_items": [
        "I'Ll Turn This Car Around"
      ]
    },
    {
      "name": "BARREL PROOF LIQUORS II - HUNTERTOWN",
      "city": "Huntertown",
      "state": "IN",
      "lat": 41.226119,
      "lng": -85.1723667,
      "recent_items": [
        "The Dude Abides",
        "Pull My Finger"
      ]
    },
    {
      "name": "HILTON GARDEN INN - ARI WAY",
      "city": "Fort Wayne",
      "state": "IN",
      "lat": 41.181822,
      "lng": -85.0925333,
      "recent_items": [
        "I'Ll Turn This Car Around",
        "Socks And Sandals"
      ]
    },
    {
      "name": "BEGGARS PIZZA - WHITING",
      "city": "Whiting",
      "state": "IN",
      "lat": 41.67909849999999,
      "lng": -87.49653819999999,
      "recent_items": [
        "Socks And Sandals"
      ]
    },
    {
      "name": "MJ PACKAGE LIQUOR",
      "city": "Walkerton",
      "state": "IN",
      "lat": 41.4654733,
      "lng": -86.4816869,
      "recent_items": [
        "The Dude Abides"
      ]
    },
    {
      "name": "DILORETO SOCIETY",
      "city": "Mishawaka",
      "state": "IN",
      "lat": 41.7295254,
      "lng": -85.82016229999999,
      "recent_items": [
        "Pull My Finger"
      ]
    },
    {
      "name": "ROUGH DRAFT TAPROOM",
      "city": "Fort Wayne",
      "state": "IN",
      "lat": 41.0924606,
      "lng": -85.1459716,
      "recent_items": [
        "You'Re Grounded Mister"
      ]
    },
    {
      "name": "THE PICKLE - MARKLE",
      "city": "Markle",
      "state": "IN",
      "lat": 40.8243508,
      "lng": -85.3389195,
      "recent_items": [
        "Socks And Sandals",
        "Other"
      ]
    },
    {
      "name": "DANNY Zs PUB & GRUB - MUNSTER",
      "city": "Munster",
      "state": "IN",
      "lat": 41.5372806,
      "lng": -87.4838042,
      "recent_items": [
        "Pull My Finger",
        "I'Ll Turn This Car Around"
      ]
    },
    {
      "name": "BLARNEY STONE 5 - SB AVE",
      "city": "South Bend",
      "state": "IN",
      "lat": 41.6971662,
      "lng": -86.2205743,
      "recent_items": [
        "The Dude Abides"
      ]
    },
    {
      "name": "MEGA LIQUOR 17 -  W NAPPANEE",
      "city": "Nappanee",
      "state": "IN",
      "lat": 41.4429381,
      "lng": -86.0128848,
      "recent_items": [
        "Pull My Finger",
        "Socks And Sandals"
      ]
    },
    {
      "name": "BERNE PACKAGE LIQUORS - BERNE",
      "city": "Berne",
      "state": "IN",
      "lat": 40.6694268,
      "lng": -84.95497100000001,
      "recent_items": [
        "The Dude Abides",
        "Pull My Finger",
        "Kiss The Cook"
      ]
    },
    {
      "name": "BF: CENTURY CENTER",
      "city": "South Bend",
      "state": "IN",
      "lat": 41.67666180000001,
      "lng": -86.2475647,
      "recent_items": [
        "I'Ll Turn This Car Around",
        "Pull My Finger",
        "Socks And Sandals"
      ]
    },
    {
      "name": "M'KAY PROPERTIES",
      "city": "Fort Wayne",
      "state": "IN",
      "lat": 41.0966112,
      "lng": -85.1217841,
      "recent_items": [
        "The Dude Abides"
      ]
    },
    {
      "name": "ROCKY RIVER TAP & TABLE",
      "city": "Granger",
      "state": "IN",
      "lat": 41.7218889,
      "lng": -86.1679434,
      "recent_items": [
        "I'Ll Turn This Car Around"
      ]
    },
    {
      "name": "GENTLEMAN TOMS HDWY - DEMOTTE",
      "city": "Demotte",
      "state": "IN",
      "lat": 41.1942321,
      "lng": -87.1571503,
      "recent_items": [
        "I'Ll Turn This Car Around"
      ]
    },
    {
      "name": "ONE13 NORTH KITCHEN & BAR",
      "city": "Crown Point",
      "state": "IN",
      "lat": 41.4184302,
      "lng": -87.3645509,
      "recent_items": [
        "I'Ll Turn This Car Around"
      ]
    },
    {
      "name": "REGAL COLDWATER CROSSING STADIUM 14",
      "city": "Fort Wayne",
      "state": "IN",
      "lat": 41.1311171,
      "lng": -85.1421795,
      "recent_items": [
        "The Dude Abides"
      ]
    },
    {
      "name": "S&V LIQUOR - HOMESTEAD",
      "city": "Fort Wayne",
      "state": "IN",
      "lat": 41.017593,
      "lng": -85.285479,
      "recent_items": [
        "You'Re Grounded Mister"
      ]
    },
    {
      "name": "SHIPWRECK BAR & GRILL",
      "city": "Griffith",
      "state": "IN",
      "lat": 41.5081086,
      "lng": -87.4283031,
      "recent_items": [
        "You'Re Grounded Mister"
      ]
    },
    {
      "name": "PROVECHO INC - CROWN POINT",
      "city": "Crown Point",
      "state": "IN",
      "lat": 41.4183894,
      "lng": -87.363974,
      "recent_items": [
        "The Dude Abides"
      ]
    },
    {
      "name": "BELMONT BEVERAGE 01 - DUPONT ROAD",
      "city": "Fort Wayne",
      "state": "IN",
      "lat": 41.1779592,
      "lng": -85.0973628,
      "recent_items": [
        "You'Re Grounded Mister",
        "The Dude Abides",
        "Tapestry Of Obscenity"
      ]
    },
    {
      "name": "CRAFT ONE HALF",
      "city": "Mishawaka",
      "state": "IN",
      "lat": 41.6615572,
      "lng": -86.1803685,
      "recent_items": [
        "Socks And Sandals"
      ]
    },
    {
      "name": "GASTRO 49 - CHESTERTON",
      "city": "Chesterton",
      "state": "IN",
      "lat": 41.6156808,
      "lng": -87.0515554,
      "recent_items": [
        "Socks And Sandals"
      ]
    },
    {
      "name": "11TH FRAME- COLUMBIA CITY",
      "city": "Columbia City",
      "state": "IN",
      "lat": 41.1546815,
      "lng": -85.488112,
      "recent_items": [
        "Socks And Sandals"
      ]
    },
    {
      "name": "THE SQUARE",
      "city": "Columbia City",
      "state": "IN",
      "lat": 41.1565899,
      "lng": -85.4880268,
      "recent_items": [
        "The Dude Abides"
      ]
    },
    {
      "name": "BARTLETTS FISHCAMP",
      "city": "Michigan City",
      "state": "IN",
      "lat": 41.7230814,
      "lng": -86.9067148,
      "recent_items": [
        "Tapestry Of Obscenity",
        "Socks And Sandals"
      ]
    },
    {
      "name": "LEROYS - PORTER",
      "city": "Porter",
      "state": "IN",
      "lat": 41.6127275,
      "lng": -87.0966646,
      "recent_items": [
        "Tapestry Of Obscenity",
        "Other"
      ]
    },
    {
      "name": "KENNAN LIQUORS 3",
      "city": "St John",
      "state": "IN",
      "lat": 41.4226492,
      "lng": -87.4501035,
      "recent_items": [
        "Kiss The Cook"
      ]
    },
    {
      "name": "SQUARE ROOTS",
      "city": "Crown Point",
      "state": "IN",
      "lat": 41.4183894,
      "lng": -87.363974,
      "recent_items": [
        "Bent Oak Blonde Ale",
        "Pull My Finger",
        "Tapestry Of Obscenity"
      ]
    },
    {
      "name": "ALS SUPERMARKET -  FRANKLIN",
      "city": "Michigan City",
      "state": "IN",
      "lat": 41.6882088,
      "lng": -86.8958519,
      "recent_items": [
        "Tapestry Of Obscenity"
      ]
    },
    {
      "name": "THE FRIENDLY FOX",
      "city": "Fort Wayne",
      "state": "IN",
      "lat": 41.0486194,
      "lng": -85.1466502,
      "recent_items": [
        "The Dude Abides"
      ]
    },
    {
      "name": "MISHAWAKA PUBLIC HOUSE",
      "city": "Mishawaka",
      "state": "IN",
      "lat": 41.6642724,
      "lng": -86.1842284,
      "recent_items": [
        "I'Ll Turn This Car Around"
      ]
    },
    {
      "name": "STANLEY ZIHERL",
      "city": "Fort Wayne",
      "state": "IN",
      "lat": 41.0609612,
      "lng": -85.2987222,
      "recent_items": [
        "The Dude Abides"
      ]
    },
    {
      "name": "BRONKO'S RESTAURANT AND LOUNGE",
      "city": "Middlebury",
      "state": "IN",
      "lat": 41.66771809999999,
      "lng": -85.7293145,
      "recent_items": [
        "I'Ll Turn This Car Around",
        "Other"
      ]
    },
    {
      "name": "WASHINGTON STREET TAP ROOM",
      "city": "Valparaiso",
      "state": "IN",
      "lat": 41.4682557,
      "lng": -87.0611967,
      "recent_items": [
        "Pull My Finger"
      ]
    },
    {
      "name": "DOUBLETREE - SOUTH BEND *3000*",
      "city": "South Bend",
      "state": "IN",
      "lat": 41.6767845,
      "lng": -86.249358,
      "recent_items": [
        "The Dude Abides",
        "Other"
      ]
    },
    {
      "name": "BRETT WILTJER",
      "city": "Valparaiso",
      "state": "IL",
      "lat": 41.546111,
      "lng": -87.1392549,
      "recent_items": [
        "Bent Oak Blonde Ale"
      ]
    },
    {
      "name": "BIEBS AND ASH",
      "city": "Goshen",
      "state": "IN",
      "lat": 41.5852654,
      "lng": -85.83497009999999,
      "recent_items": [
        "I'Ll Turn This Car Around",
        "Stud Finder Amber Ale"
      ]
    },
    {
      "name": "GAYS PARTY STORE 9 - AUBURN",
      "city": "Auburn",
      "state": "IN",
      "lat": 41.3663816,
      "lng": -85.06629450000001,
      "recent_items": [
        "Pontoon Patrol"
      ]
    },
    {
      "name": "Js PINE ISLAND LIQUORS - CROWN POINT",
      "city": "Crown Point",
      "state": "IN",
      "lat": 41.4732331,
      "lng": -87.39603389999999,
      "recent_items": [
        "Bent Oak Blonde Ale"
      ]
    },
    {
      "name": "SUMMIT CITY COMEDY CLUB",
      "city": "Fort Wayne",
      "state": "IN",
      "lat": 41.1306056,
      "lng": -85.1014099,
      "recent_items": [
        "The Dude Abides"
      ]
    },
    {
      "name": "SAVE-ON LIQUOR 112 - S JEFF- HUNTINGTON",
      "city": "Huntington",
      "state": "IN",
      "lat": 40.87072939999999,
      "lng": -85.4837289,
      "recent_items": [
        "The Dude Abides"
      ]
    },
    {
      "name": "HOBGOBLIN",
      "city": "Beverly Shores",
      "state": "IN",
      "lat": 41.6709108,
      "lng": -86.989457,
      "recent_items": [
        "Pull My Finger",
        "Bent Oak Blonde Ale"
      ]
    },
    {
      "name": "GREEN OLIVE",
      "city": "Marion",
      "state": "IN",
      "lat": 40.5672348,
      "lng": -85.6590184,
      "recent_items": [
        "Other"
      ]
    },
    {
      "name": "BULLDOG SALOON",
      "city": "Mentone",
      "state": "IN",
      "lat": 41.1735813,
      "lng": -86.03604539999999,
      "recent_items": [
        "Other"
      ]
    },
    {
      "name": "CAP N CORK 11 - COLDWATER RD",
      "city": "Fort Wayne",
      "state": "IN",
      "lat": 41.1293034,
      "lng": -85.1350928,
      "recent_items": [
        "Tapestry Of Obscenity"
      ]
    },
    {
      "name": "WES HERRON",
      "city": "Columbia City",
      "state": "IN",
      "lat": 41.148174,
      "lng": -85.4663358,
      "recent_items": [
        "Bent Oak Blonde Ale"
      ]
    },
    {
      "name": "MOONDOG PUB - WABASH",
      "city": "Wabash",
      "state": "IN",
      "lat": 40.79642399999999,
      "lng": -85.8219367,
      "recent_items": [
        "The Dude Abides"
      ]
    },
    {
      "name": "EMBERS - RENSSELAER",
      "city": "Rensselaer",
      "state": "IN",
      "lat": 40.9355719,
      "lng": -87.1530009,
      "recent_items": [
        "Bent Oak Blonde Ale"
      ]
    },
    {
      "name": "FENWICK FARMS BREWING COMPANY",
      "city": "Rensselaer",
      "state": "IN",
      "lat": 40.9355541,
      "lng": -87.15247149999999,
      "recent_items": [
        "Pull My Finger"
      ]
    },
    {
      "name": "FIVE STAR LIQUORS",
      "city": "Crown Point",
      "state": "IN",
      "lat": 41.4196354,
      "lng": -87.3305307,
      "recent_items": [
        "Pull My Finger",
        "Bent Oak Blonde Ale",
        "I'Ll Turn This Car Around"
      ]
    },
    {
      "name": "KENNAN LIQUORS 2",
      "city": "St John",
      "state": "IN",
      "lat": 41.4465714,
      "lng": -87.47065119999999,
      "recent_items": [
        "You'Re Grounded Mister",
        "The Dude Abides"
      ]
    },
    {
      "name": "VILLAGE TAVERN - PORTER",
      "city": "Porter",
      "state": "IN",
      "lat": 41.6147566,
      "lng": -87.0740555,
      "recent_items": [
        "Other",
        "Tapestry Of Obscenity"
      ]
    },
    {
      "name": "FOUR WINDS CASINO",
      "city": "South Bend",
      "state": "IN",
      "lat": 41.6403523,
      "lng": -86.29191379999999,
      "recent_items": [
        "You'Re Grounded Mister"
      ]
    },
    {
      "name": "RUDYS - FORT WAYNE",
      "city": "Fort Wayne",
      "state": "IN",
      "lat": 41.0731174,
      "lng": -85.14422239999999,
      "recent_items": [
        "The Dude Abides"
      ]
    },
    {
      "name": "TAP ROOT BREWHOUSE & COMPANY",
      "city": "Pierceton",
      "state": "IN",
      "lat": 41.199731,
      "lng": -85.704894,
      "recent_items": [
        "Bent Oak Blonde Ale"
      ]
    },
    {
      "name": "CHALET 15 PARTY SHOPPES - CARAGANA CT",
      "city": "Goshen",
      "state": "IN",
      "lat": 41.55589250000001,
      "lng": -85.790718,
      "recent_items": [
        "Kiss The Cook"
      ]
    },
    {
      "name": "MAIN & LINCOLN",
      "city": "Valparaiso",
      "state": "IN",
      "lat": 41.4674893,
      "lng": -87.0579376,
      "recent_items": [
        "Other",
        "The Dude Abides"
      ]
    },
    {
      "name": "SOUTH BEND CHOCOLATE CO SBN AIRPORT",
      "city": "South Bend",
      "state": "IN",
      "lat": 41.7009686,
      "lng": -86.312716,
      "recent_items": [
        "Socks And Sandals"
      ]
    },
    {
      "name": "CATCH 22 TABLE & TAP",
      "city": "Merrillville",
      "state": "IN",
      "lat": 41.4719691,
      "lng": -87.3347215,
      "recent_items": [
        "Other",
        "The Dude Abides"
      ]
    },
    {
      "name": "ROSATIS PIZZA - CROWN POINT",
      "city": "Crown Point",
      "state": "IN",
      "lat": 41.42187000000001,
      "lng": -87.3346571,
      "recent_items": [
        "Other",
        "Socks And Sandals"
      ]
    },
    {
      "name": "WHOLE FOODS RESTAURANT-SCHERERVILLE",
      "city": "Schererville",
      "state": "IN",
      "lat": 41.5192379,
      "lng": -87.47053509999999,
      "recent_items": [
        "Tapestry Of Obscenity"
      ]
    },
    {
      "name": "HORSESHOE CASINO *40000*",
      "city": "Hammond",
      "state": "IN",
      "lat": 41.6943426,
      "lng": -87.5069676,
      "recent_items": [
        "Other"
      ]
    },
    {
      "name": "DUNESIDE LIQUORS - PORTAGE",
      "city": "Portage",
      "state": "IN",
      "lat": 41.57384940000001,
      "lng": -87.1826069,
      "recent_items": [
        "You'Re Grounded Mister",
        "Tapestry Of Obscenity",
        "I'Ll Turn This Car Around"
      ]
    },
    {
      "name": "SHOOKYS INC",
      "city": "Rome City",
      "state": "IN",
      "lat": 41.4959576,
      "lng": -85.37696,
      "recent_items": [
        "The Dude Abides"
      ]
    }
  ]
}